{"portals":{"A":{"bkmrk":{"A1":{"guid":"0293247a35fb480aba5b16cb57901213.16","label":"小区健身","latlng":"23.353751,116.698035"},"A2":{"guid":"7a2488e1dd3a412a804335535fc318f8.16","label":"轮渡剧场","latlng":"23.353838,116.681584"},"A3":{"guid":"1727a325ba094c4a97593cbb1a68aa6a.16","label":"美少女","latlng":"23.353565,116.691958"}},"label":"Lv 1","state":0},"B":{"bkmrk":{"B1":{"guid":"5ef13bc3e194414a98cb198454b78ee9.16","label":"小松鼠","latlng":"23.353711,116.688892"}},"label":"Lv 2","state":0},"C":{"bkmrk":{"C1":{"guid":"99431b859f25484aafcce7ea770dfd19.16","label":"雷管保险丝","latlng":"23.353763,116.688387"},"C2":{"guid":"7db3cc5d982147a188e95d11d1c05ee1.16","label":"海边休憩廊道","latlng":"23.353699,116.689134"},"C3":{"guid":"2d071e127b974366883571727629eacc.16","label":"双鹿","latlng":"23.353653,116.691565"}},"label":"Lv 3","state":0},"D":{"bkmrk":{"D1":{"guid":"7cc8e19488b74986a2068b08db118bbd.16","label":"跨球小孩","latlng":"23.353749,116.689957"},"D2":{"guid":"f99ba579496940689388c7054fd6d3f6.16","label":"大红中国结","latlng":"23.353786,116.691033"},"D3":{"guid":"9258aae4170a461c8d3edbab85046edf.16","label":"石结构","latlng":"23.353745,116.687642"},"D4":{"guid":"911ac9feed1248598d38774c54bae6b9.16","label":"骆驼","latlng":"23.353779,116.68489"},"D5":{"guid":"372ae79b0bfe481ca649b0534fd24e28.16","label":"海边廊道","latlng":"23.353652,116.689479"},"D6":{"guid":"f45474cf268e4ed9a5cb7bd0dced9a10.16","label":"胖子","latlng":"23.353673,116.689686"},"D7":{"guid":"38b35028503246a1b1d9800fe6a1065d.16","label":"两坨球状大腿","latlng":"23.353631,116.691179"},"D8":{"guid":"0f7788c1500949ffa5505b7e78eccdda.16","label":"欢乐小姑娘","latlng":"23.353605,116.692397"},"D9":{"guid":"be74a99e7c5d4ec4add3d087d8b81359.16","label":"倒立小孩","latlng":"23.3537,116.690356"}},"label":"Lv 4","state":0}}}
