{"portals":{"A":{"bkmrk":{"A1":{"guid":"8809c24f215a419a93ebeeb78e2d19c6.16","label":"大娃娃","latlng":"23.353483,116.692588"},"A2":{"guid":"0f7788c1500949ffa5505b7e78eccdda.16","label":"欢乐小姑娘","latlng":"23.353605,116.692397"},"A3":{"guid":"7cc8e19488b74986a2068b08db118bbd.16","label":"跨球小孩","latlng":"23.353749,116.689957"}},"label":"Lv 1","state":0},"B":{"bkmrk":{"B1":{"guid":"38b35028503246a1b1d9800fe6a1065d.16","label":"两坨球状大腿","latlng":"23.353631,116.691179"}},"label":"Lv 2","state":0},"C":{"bkmrk":{"C1":{"guid":"1727a325ba094c4a97593cbb1a68aa6a.16","label":"美少女","latlng":"23.353565,116.691958"},"C2":{"guid":"2d071e127b974366883571727629eacc.16","label":"双鹿","latlng":"23.353653,116.691565"},"C3":{"guid":"e3f966f24c6f4183a492cf7674d06d26.16","label":"圆台","latlng":"23.353669,116.690762"}},"label":"Lv 3","state":0}}}
