{"portals":{"A":{"bkmrk":{"A1":{"guid":"742b8fb6089a4d39ac0f3795c1b23f17.16","label":"鸟","latlng":"23.395832,116.704655"},"A2":{"guid":"faeed762e1d84fef884dbba605455f0a.16","label":"西堤客运站","latlng":"23.350587,116.664742"},"A3":{"guid":"8449c0c6f3d54e1c8227d19061466907.16","label":"别人都330ml 就你310","latlng":"23.356016,116.714293"}},"label":"Lv 1","state":0},"B":{"bkmrk":{"B1":{"guid":"1206b5624b4b47d0b9ea847660cc57ea.16","label":"美人鱼的药用价值","latlng":"23.364499,116.690082"}},"label":"Lv 2","state":0},"C":{"bkmrk":{"C1":{"guid":"0d487ec86fc64815b87fb9c3c6a573c9.16","label":"大毛笔","latlng":"23.363316,116.678162"},"C2":{"guid":"0a17b0a50e62427caea8f66c791ad359.16","label":"中国结","latlng":"23.353863,116.684427"},"C3":{"guid":"6be60c6a9c8a4215a38c54eb6f4509c3.16","label":"保龄球","latlng":"23.369794,116.7007"}},"label":"Lv 3","state":0},"D":{"bkmrk":{"D1":{"guid":"079a4809d4794d44a8cf8709056f06d8.16","label":"建行石狮子","latlng":"23.367936,116.687121"},"D2":{"guid":"767ddbaffde2491f9d3a57877b03c3ad.16","label":"大浦^ Hall of Dapu","latlng":"23.359758,116.673731"},"D3":{"guid":"18b051e4c08d4595babbc33980263fa6.11","label":"汕头博物馆","latlng":"23.36267,116.680276"},"D4":{"guid":"f5b65211bedc43a49680b5cf1c8d886f.16","label":"人民广场","latlng":"23.354969,116.678774"},"D5":{"guid":"f45474cf268e4ed9a5cb7bd0dced9a10.16","label":"胖子","latlng":"23.353673,116.689686"},"D6":{"guid":"8125957b20b14686abeffb7b5f36e61d.16","label":"书 球","latlng":"23.360108,116.691637"},"D7":{"guid":"52b00cffabac4a078bcc80c59fcf8e97.16","label":"威武的狮子","latlng":"23.364488,116.700863"},"D8":{"guid":"20cd7860d82742adb1ad2250fafc397e.16","label":"小区景观","latlng":"23.375478,116.704974"},"D9":{"guid":"101ede70f66c40bca80a1263af5c8494.16","label":"靠外面的石狮子","latlng":"23.369272,116.696005"}},"label":"Lv 4","state":0},"E":{"bkmrk":{"E1":{"guid":"7ea7221bab7d4073846699da8fae380a.16","label":"壁画诶","latlng":"23.363819,116.679504"},"E10":{"guid":"6734b4d23e2e4a1589fdf8af674ceee2.16","label":"嘲讽脸狮子","latlng":"23.359944,116.685995"},"E11":{"guid":"a1ab507c109847f1938353fe37659ffe.16","label":"杂耍熊猫","latlng":"23.356778,116.680219"},"E12":{"guid":"0e5a00f699d6459dad4a343036d84fad.16","label":"人民渡口","latlng":"23.353579,116.681421"},"E13":{"guid":"e0b568a1d9ab4515a3ddf06cb88a60ba.16","label":"骆驼","latlng":"23.353635,116.685893"},"E14":{"guid":"2d071e127b974366883571727629eacc.16","label":"双鹿","latlng":"23.353653,116.691565"},"E15":{"guid":"5ef13bc3e194414a98cb198454b78ee9.16","label":"小松鼠","latlng":"23.353711,116.688892"},"E16":{"guid":"21fdde5230a54708b90542019ac62e4e.16","label":"Lion Guard Of Chaofeng Hotel","latlng":"23.356281,116.690662"},"E17":{"guid":"c11b741b4f9a4b23a46474b28a0e6b35.16","label":"无脸小孩","latlng":"23.363981,116.691364"},"E18":{"guid":"01a76d67d37548108a2247809523491b.11","label":"汕^一中","latlng":"23.361335,116.690622"},"E19":{"guid":"8207668ee6414bf9ad389c045a0ceb24.16","label":"步行街正门","latlng":"23.367017,116.696273"},"E2":{"guid":"657fc4565b2942bfa120295c162cb486.16","label":"合境平安","latlng":"23.373581,116.691648"},"E20":{"guid":"e880983dce9044b8a66855632e922402.16","label":"储蓄的狮子","latlng":"23.360547,116.704913"},"E21":{"guid":"49d5729572654eaf83f970b4e0f624bd.16","label":"石猴子","latlng":"23.358604,116.711437"},"E22":{"guid":"b98e7d867df24d06b954221b0122c5ce.16","label":"裂开的狮子","latlng":"23.369273,116.706253"},"E23":{"guid":"8829bed4e41347d6a0ac12e57b93bc24.16","label":"km","latlng":"23.365558,116.710737"},"E24":{"guid":"433ef4d74b2c4ad893d1217f95566d87.16","label":"爱心喷泉","latlng":"23.38633,116.704032"},"E25":{"guid":"dbf6d32573ac4f428dd6975bdfdc85e5.16","label":"佛教f","latlng":"23.38416,116.702601"},"E26":{"guid":"70b1e988961c4f7da11b4f2250b66a92.16","label":"伏虎","latlng":"23.368686,116.694843"},"E27":{"guid":"551a4e38a87a46288985d528a5edad50.16","label":"爬地男孩","latlng":"23.368181,116.696161"},"E3":{"guid":"9823446cf0b5400999cacc8bd9688df4.11","label":"九曲桥","latlng":"23.365488,116.68069"},"E4":{"guid":"4eff3186511e44a79dbae50620ba1545.16","label":"泳边亭","latlng":"23.365731,116.679166"},"E5":{"guid":"4b5d90367b22494e8b854b80d5d8fb84.16","label":"忠烈祠","latlng":"23.364162,116.677172"},"E6":{"guid":"c7a1169db12347a48154cbe691c27dae.11","label":"汕头老邮局","latlng":"23.355489,116.669645"},"E7":{"guid":"b76f0e7689434bdd935c4b15438896dd.16","label":"开埠文化陈列馆","latlng":"23.354946,116.669512"},"E8":{"guid":"6b6e029021d34b6b875f9f33641f38dd.16","label":"好好学习，天天恋爱","latlng":"23.358391,116.677889"},"E9":{"guid":"1110485ba8164a4ca0420fc24bb35031.16","label":"福","latlng":"23.363263,116.679043"}},"label":"Lv 5","state":0},"F":{"bkmrk":{"F1":{"guid":"53aa0a31be2f4f7fb833e2fb17cec77b.11","label":"玉女","latlng":"23.365472,116.68235"},"F10":{"guid":"ce94e4f2e266439aab469bb60176905f.16","label":"母亲为孩子拍照","latlng":"23.364032,116.67793"},"F11":{"guid":"51058ee3a3d14818ac8bd6e0749aaca5.16","label":"金禧花园","latlng":"23.393093,116.70238"},"F12":{"guid":"de7d3ec612d54bc7a62573ee0649c909.16","label":"汕头市博物馆","latlng":"23.36556,116.678778"},"F13":{"guid":"0430dd44df864d5a93c073e13f2eaf40.16","label":"能量柱","latlng":"23.364065,116.677358"},"F14":{"guid":"b51e80c92bb4471483b342b2e5bd3f9a.16","label":"大风车","latlng":"23.365275,116.67812"},"F15":{"guid":"c2a830f5b9b942efa917860913d08193.16","label":"Red Eyed Lion","latlng":"23.356213,116.670081"},"F16":{"guid":"e62a7c5cca2b42b78906942ec1e77141.16","label":"绿狮子","latlng":"23.357048,116.671115"},"F17":{"guid":"842ee9e1a0b74ffa855c3c2432dd2c64.16","label":"存心善堂","latlng":"23.357733,116.672097"},"F18":{"guid":"c38887d4c6b148a2a319ba3570f24b3f.16","label":"狮子开大口","latlng":"23.358995,116.673178"},"F19":{"guid":"88d36404ec4e4548865bdc0801ec54e3.16","label":"停车狮子","latlng":"23.362314,116.679515"},"F2":{"guid":"641fa597e1834a48a6956751faa19223.16","label":"中山像","latlng":"23.363504,116.679268"},"F20":{"guid":"58bf53760815410bba9de02619812c61.16","label":"侨批文物馆","latlng":"23.355323,116.66984"},"F21":{"guid":"79a2831a276640beb0068681a8748d1d.16","label":"外马三小 ","latlng":"23.358504,116.674719"},"F22":{"guid":"4cb00b80903a4344b8a3b3e0ddf81358.11","label":"汕头天主教堂","latlng":"23.358595,116.675234"},"F23":{"guid":"edf1c7d69d804b9c9802ecdf04470652.16","label":"大象","latlng":"23.358077,116.677673"},"F24":{"guid":"424301a0c28e4dd29c1133edcc10e4d4.16","label":"基督教市东堂","latlng":"23.361711,116.683737"},"F25":{"guid":"852b55d3eb9d446fb7fce9545ad9f45c.11","label":"中山假山","latlng":"23.362915,116.67978"},"F26":{"guid":"dd593ca874ef45fe8a1aa8660733edea.11","label":"汕头博物馆","latlng":"23.36345,116.680348"},"F27":{"guid":"cd663968d0004544b66388a8b90d1ae7.16","label":"大龟头在两个鸟上面","latlng":"23.362965,116.679528"},"F28":{"guid":"c6348112bcd145de872deea1b57b5523.16","label":"城雕1","latlng":"23.354956,116.679686"},"F29":{"guid":"21ab398ad6e14b9f9f0e13a062caf4ca.16","label":"恩典堂","latlng":"23.358476,116.68636"},"F3":{"guid":"1a1ff9ffcc064f8e875fd7394259d8b4.16","label":"汕头动物园","latlng":"23.364031,116.680794"},"F30":{"guid":"1657e6be1623405da2f05fdbf92c1ae4.16","label":"神秘人像","latlng":"23.359741,116.685582"},"F31":{"guid":"2145b9c52e3c437eb349bd8ed372f1e9.16","label":"男女依偎","latlng":"23.356322,116.680255"},"F32":{"guid":"de14590189bd42b48e8461ea3142a8c0.16","label":"中国邮政","latlng":"23.356444,116.678492"},"F33":{"guid":"3fdeeb69e3074518b453717e24eb8010.11","label":"石雕呀！！","latlng":"23.354835,116.677851"},"F34":{"guid":"719c1b70dab644908650fa93109d0f6f.16","label":"海滨长廊赋","latlng":"23.353256,116.678575"},"F35":{"guid":"f3cff2db28cf47fa897b6d45d589ca83.16","label":"品海亭","latlng":"23.353562,116.68234"},"F36":{"guid":"7a2488e1dd3a412a804335535fc318f8.16","label":"轮渡剧场","latlng":"23.353838,116.681584"},"F37":{"guid":"9258aae4170a461c8d3edbab85046edf.16","label":"石结构","latlng":"23.353745,116.687642"},"F38":{"guid":"911ac9feed1248598d38774c54bae6b9.16","label":"骆驼","latlng":"23.353779,116.68489"},"F39":{"guid":"372ae79b0bfe481ca649b0534fd24e28.16","label":"海边廊道","latlng":"23.353652,116.689479"},"F4":{"guid":"f631a9ac03064acaab0a750900308d8c.16","label":"卜蜂超市","latlng":"23.36618,116.689069"},"F40":{"guid":"38b35028503246a1b1d9800fe6a1065d.16","label":"两坨球状大腿","latlng":"23.353631,116.691179"},"F41":{"guid":"db406ba4994749c2a6aa47b76e160ea2.16","label":"大炮","latlng":"23.3539,116.694822"},"F42":{"guid":"f99ba579496940689388c7054fd6d3f6.16","label":"大红中国结","latlng":"23.353786,116.691033"},"F43":{"guid":"7cc8e19488b74986a2068b08db118bbd.16","label":"跨球小孩","latlng":"23.353749,116.689957"},"F44":{"guid":"7699db39738349708416429aa6ad1ebf.16","label":"爱子猴","latlng":"23.353876,116.686985"},"F45":{"guid":"7db3cc5d982147a188e95d11d1c05ee1.16","label":"海边休憩廊道","latlng":"23.353699,116.689134"},"F46":{"guid":"bbdbc524f8644b73ba0b926787b097ac.16","label":"捡到一分钱","latlng":"23.356408,116.687858"},"F47":{"guid":"6971dfbcf9d14156a49a21de97435f4a.16","label":"汕头科技馆","latlng":"23.35423,116.687174"},"F48":{"guid":"f2b087f8751d4e84ab6c87d4954265f5.16","label":"鱼","latlng":"23.357966,116.702158"},"F49":{"guid":"9404162b6fbc4bda9225f6edc341ae26.16","label":"拉小提琴的女神么么哒～","latlng":"23.35755,116.709212"},"F5":{"guid":"2134377fa5f94750916e6e607711d09c.16","label":"国泰民安","latlng":"23.373585,116.691901"},"F50":{"guid":"7b924d7e37cf47cbbe742fad0227bc28.16","label":"幻想上天打飞机","latlng":"23.363963,116.691532"},"F51":{"guid":"316f2f6ae4194bda842ad685b3ddb3c8.16","label":"趵突泉","latlng":"23.363573,116.691328"},"F52":{"guid":"56fb4a6f8d104b298d9e115f6cea69db.11","label":"汕头一中","latlng":"23.361432,116.690966"},"F53":{"guid":"436c64a35ec54a3baedaca2fde54060b.16","label":"含珠石狮子","latlng":"23.357716,116.687357"},"F54":{"guid":"be973dd20aff4e2a8dc0776e7c7da34b.16","label":"抬头遥望天朝的雄狮(′ω`)","latlng":"23.359015,116.689578"},"F55":{"guid":"92b67f3e276f4031a5db5aa033a51667.16","label":"水池…","latlng":"23.368622,116.69964"},"F56":{"guid":"db352010793d4f33b905a8068117ea20.16","label":"黑狮子","latlng":"23.369039,116.699493"},"F57":{"guid":"f5c22ffd9eb94762b7208479f57ebc63.16","label":"狮子","latlng":"23.364766,116.700089"},"F58":{"guid":"3c2d7c006d494de8a979388c15fa8dbe.16","label":"公狮子","latlng":"23.363395,116.700871"},"F59":{"guid":"209c48a037f6480890909dc5593745b1.16","label":"女神","latlng":"23.357771,116.709822"},"F6":{"guid":"0f5b69d6be4f41b4b5ae784ba6e11725.16","label":"金砂","latlng":"23.372286,116.689971"},"F60":{"guid":"493601dd48c94ac0accb0111bfe1c945.16","label":"石象","latlng":"23.360409,116.706319"},"F61":{"guid":"42a2a76929ae44f391346d98f796e50f.16","label":"小象","latlng":"23.359876,116.708641"},"F62":{"guid":"49a9a0f367a140079c4dc94ced1e0a5e.16","label":"信用社狮子","latlng":"23.358973,116.711348"},"F63":{"guid":"53419d7a3ed842d6a81338038c9191f5.16","label":"狼医生的工坡","latlng":"23.366638,116.700948"},"F64":{"guid":"5992cf034df14ede96913de7dbcf125e.16","label":"奇葩的东西","latlng":"23.373851,116.704606"},"F65":{"guid":"e9f881a2b37f46f49c0c8b02160c862a.11","label":"大丁丁","latlng":"23.362438,116.710075"},"F66":{"guid":"7c2e16b688274a47a7c41a8997c51222.16","label":"东方中学体育场","latlng":"23.3611,116.711246"},"F67":{"guid":"8a7acb9aa6b444a6b7e3b4a05ff94fad.16","label":"残疾人活动中心","latlng":"23.364981,116.710249"},"F68":{"guid":"94b62cef368c4fe8a48230dd15019d22.16","label":"两只企鹅的背影","latlng":"23.376922,116.709108"},"F69":{"guid":"88fb63e9cf7847e1a1f508d478fced49.16","label":"粗茶淡饭","latlng":"23.376227,116.705961"},"F7":{"guid":"9fe7b1e0b95b455ba208c48bda929c9b.16","label":"荡秋千的小姑娘","latlng":"23.393581,116.70304"},"F70":{"guid":"4d080e64f1e748aeb951ab3af26c2fe5.16","label":"东厦体育馆","latlng":"23.37931,116.704798"},"F71":{"guid":"d2f79f5be9944d07842d47609478e58c.16","label":"南墩V德陵@","latlng":"23.385257,116.703086"},"F72":{"guid":"39c17a51b0bb4cb1aa81187b435e90db.16","label":"精灵Q密","latlng":"23.372767,116.702186"},"F73":{"guid":"ad8cdd2a6a854078a30b325b18d7f3a1.16","label":"陵@麒麟壁","latlng":"23.372959,116.69835"},"F74":{"guid":"d90ce22761fc4b71b78a209343266c9c.16","label":"花儿都谢了","latlng":"23.392176,116.704077"},"F75":{"guid":"16331d44fa584173a3bbc742f4214e9d.16","label":"圆喷泉","latlng":"23.392846,116.703875"},"F76":{"guid":"290fcf8d82f548038be7cfc0c47ff73a.16","label":"石象子","latlng":"23.372927,116.696944"},"F77":{"guid":"a89c2bdc13194b04b46c736a6b753146.11","label":"母若老虎","latlng":"23.368041,116.692662"},"F78":{"guid":"c2710b6dd3b048c597272547e49b15ce.11","label":"金砂飞机","latlng":"23.368639,116.695208"},"F79":{"guid":"c6cf8f6382eb4459823da1ec8276e8ec.16","label":"Market Arch","latlng":"23.366376,116.692423"},"F8":{"guid":"5bf1b1824480481999197cd264f87749.16","label":"飞龙柱","latlng":"23.364046,116.678835"},"F80":{"guid":"abfca6efe55541089033a74b9df12509.16","label":"海豚","latlng":"23.36767,116.696187"},"F81":{"guid":"e8eac33cb56a480fb4dfc13e79032481.16","label":"欢乐的狮子","latlng":"23.369103,116.697586"},"F9":{"guid":"cce7586631554ce8ab14c28213c7ea9d.16","label":"八宝亭","latlng":"23.36496,116.680691"}},"label":"Lv 6","state":0}}}
