Bookmarks JSON:
{"portals":{"idOthers":{"bkmrk":{"0":{"guid":"ab4bd89246754371bfcf56abd6c6199f.16","label":"华侨公园","latlng":"23.354927,116.713492"},"1":{"guid":"93973fe5487b49bd92e30caa07801210.16","label":"好晒啊","latlng":"23.354527,116.70618"},"10":{"guid":"2d071e127b974366883571727629eacc.16","label":"双鹿","latlng":"23.353653,116.691565"},"11":{"guid":"f99ba579496940689388c7054fd6d3f6.16","label":"大红中国结","latlng":"23.353786,116.691033"},"12":{"guid":"e3f966f24c6f4183a492cf7674d06d26.16","label":"圆台","latlng":"23.353669,116.690762"},"13":{"guid":"be74a99e7c5d4ec4add3d087d8b81359.16","label":"倒立小孩","latlng":"23.3537,116.690356"},"14":{"guid":"7cc8e19488b74986a2068b08db118bbd.16","label":"跨球小孩","latlng":"23.353749,116.689957"},"15":{"guid":"f45474cf268e4ed9a5cb7bd0dced9a10.16","label":"胖子","latlng":"23.353673,116.689686"},"16":{"guid":"372ae79b0bfe481ca649b0534fd24e28.16","label":"海边廊道","latlng":"23.353652,116.689479"},"17":{"guid":"7db3cc5d982147a188e95d11d1c05ee1.16","label":"海边休憩廊道","latlng":"23.353699,116.689134"},"18":{"guid":"5ef13bc3e194414a98cb198454b78ee9.16","label":"小松鼠","latlng":"23.353711,116.688892"},"19":{"guid":"ba6844f60f734f7890cc28f4a00aff30.16","label":"穿丹","latlng":"23.353583,116.688583"},"2":{"guid":"d31695e3b42242128007cff5be76d7ff.16","label":"钢铁小人","latlng":"23.354654,116.705226"},"20":{"guid":"99431b859f25484aafcce7ea770dfd19.16","label":"雷管保险丝","latlng":"23.353763,116.688387"},"21":{"guid":"9258aae4170a461c8d3edbab85046edf.16","label":"石结构","latlng":"23.353745,116.687642"},"22":{"guid":"7699db39738349708416429aa6ad1ebf.16","label":"爱子猴","latlng":"23.353876,116.686985"},"23":{"guid":"f0027840ecc4404db9d372dd3cf55892.16","label":"大耳","latlng":"23.353607,116.686353"},"24":{"guid":"ad6bb827112a45f2b36fcca1185f6895.16","label":"尾兽","latlng":"23.353897,116.68584"},"25":{"guid":"1c6a5b0c4152471bb000ac3c291d60bc.16","label":"流光塔","latlng":"23.354136,116.685626"},"26":{"guid":"911ac9feed1248598d38774c54bae6b9.16","label":"骆驼","latlng":"23.353779,116.68489"},"27":{"guid":"0a17b0a50e62427caea8f66c791ad359.16","label":"中国结","latlng":"23.353863,116.684427"},"28":{"guid":"8440f84f74844c41b3151cd21600b1ee.16","label":"小睡片刻","latlng":"23.353722,116.684101"},"29":{"guid":"70120050b8484b6fa5b508dc70064384.16","label":"屁股","latlng":"23.353925,116.683618"},"3":{"guid":"ae7c36a7f85a49d8b458cf16fd957d71.16","label":"四方亭","latlng":"23.354454,116.703891"},"30":{"guid":"56fdd307a0af42db808a3440b21b6069.16","label":"宝宝撕逼","latlng":"23.353597,116.683328"},"31":{"guid":"c06b879ddfc8460ebebed056c4cf37e6.16","label":"风向标","latlng":"23.353915,116.682613"},"32":{"guid":"f3cff2db28cf47fa897b6d45d589ca83.16","label":"品海亭","latlng":"23.353562,116.68234"},"33":{"guid":"7a2488e1dd3a412a804335535fc318f8.16","label":"轮渡剧场","latlng":"23.353838,116.681584"},"34":{"guid":"0e5a00f699d6459dad4a343036d84fad.16","label":"人民渡口","latlng":"23.353579,116.681421"},"35":{"guid":"c6348112bcd145de872deea1b57b5523.16","label":"城雕1","latlng":"23.354956,116.679686"},"4":{"guid":"63b3b3f8e29a48408d78c99567245dbc.16","label":"海边亭子","latlng":"23.353853,116.698664"},"5":{"guid":"0293247a35fb480aba5b16cb57901213.16","label":"小区健身","latlng":"23.353751,116.698035"},"6":{"guid":"684a9e62c077473dbdaa3a3967f3de6a.16","label":"石炮合公园","latlng":"23.354067,116.694578"},"7":{"guid":"8809c24f215a419a93ebeeb78e2d19c6.16","label":"大娃娃","latlng":"23.353483,116.692588"},"8":{"guid":"0f7788c1500949ffa5505b7e78eccdda.16","label":"欢乐小姑娘","latlng":"23.353605,116.692397"},"9":{"guid":"1727a325ba094c4a97593cbb1a68aa6a.16","label":"美少女","latlng":"23.353565,116.691958"}}}}}

DrawTools JSON:
[{"color":"#0099FF","latLngs":[{"lat":"23.335977","lng":"116.676696"},{"lat":"23.364046","lng":"116.678835"}],"type":"polyline"},{"color":"#0099FF","latLngs":[{"lat":"23.335977","lng":"116.676696"},{"lat":"23.354927","lng":"116.713492"}],"type":"polyline"},{"color":"#0099FF","latLngs":[{"lat":"23.364046","lng":"116.678835"},{"lat":"23.354927","lng":"116.713492"}],"type":"polyline"},{"color":"#0099FF","latLngs":[{"lat":"23.354927","lng":"116.713492"},{"lat":"23.354527","lng":"116.706180"}],"type":"polyline"},{"color":"#0099FF","latLngs":[{"lat":"23.335977","lng":"116.676696"},{"lat":"23.354527","lng":"116.706180"}],"type":"polyline"},{"color":"#0099FF","latLngs":[{"lat":"23.364046","lng":"116.678835"},{"lat":"23.354527","lng":"116.706180"}],"type":"polyline"},{"color":"#0099FF","latLngs":[{"lat":"23.354527","lng":"116.706180"},{"lat":"23.354654","lng":"116.705226"}],"type":"polyline"},{"color":"#0099FF","latLngs":[{"lat":"23.335977","lng":"116.676696"},{"lat":"23.354654","lng":"116.705226"}],"type":"polyline"},{"color":"#0099FF","latLngs":[{"lat":"23.364046","lng":"116.678835"},{"lat":"23.354654","lng":"116.705226"}],"type":"polyline"},{"color":"#0099FF","latLngs":[{"lat":"23.354654","lng":"116.705226"},{"lat":"23.354454","lng":"116.703891"}],"type":"polyline"},{"color":"#0099FF","latLngs":[{"lat":"23.335977","lng":"116.676696"},{"lat":"23.354454","lng":"116.703891"}],"type":"polyline"},{"color":"#0099FF","latLngs":[{"lat":"23.364046","lng":"116.678835"},{"lat":"23.354454","lng":"116.703891"}],"type":"polyline"},{"color":"#0099FF","latLngs":[{"lat":"23.354454","lng":"116.703891"},{"lat":"23.353853","lng":"116.698664"}],"type":"polyline"},{"color":"#0099FF","latLngs":[{"lat":"23.335977","lng":"116.676696"},{"lat":"23.353853","lng":"116.698664"}],"type":"polyline"},{"color":"#0099FF","latLngs":[{"lat":"23.364046","lng":"116.678835"},{"lat":"23.353853","lng":"116.698664"}],"type":"polyline"},{"color":"#0099FF","latLngs":[{"lat":"23.353853","lng":"116.698664"},{"lat":"23.353751","lng":"116.698035"}],"type":"polyline"},{"color":"#0099FF","latLngs":[{"lat":"23.335977","lng":"116.676696"},{"lat":"23.353751","lng":"116.698035"}],"type":"polyline"},{"color":"#0099FF","latLngs":[{"lat":"23.364046","lng":"116.678835"},{"lat":"23.353751","lng":"116.698035"}],"type":"polyline"},{"color":"#0099FF","latLngs":[{"lat":"23.353751","lng":"116.698035"},{"lat":"23.354067","lng":"116.694578"}],"type":"polyline"},{"color":"#0099FF","latLngs":[{"lat":"23.335977","lng":"116.676696"},{"lat":"23.354067","lng":"116.694578"}],"type":"polyline"},{"color":"#0099FF","latLngs":[{"lat":"23.364046","lng":"116.678835"},{"lat":"23.354067","lng":"116.694578"}],"type":"polyline"},{"color":"#0099FF","latLngs":[{"lat":"23.354067","lng":"116.694578"},{"lat":"23.353483","lng":"116.692588"}],"type":"polyline"},{"color":"#0099FF","latLngs":[{"lat":"23.335977","lng":"116.676696"},{"lat":"23.353483","lng":"116.692588"}],"type":"polyline"},{"color":"#0099FF","latLngs":[{"lat":"23.364046","lng":"116.678835"},{"lat":"23.353483","lng":"116.692588"}],"type":"polyline"},{"color":"#0099FF","latLngs":[{"lat":"23.353483","lng":"116.692588"},{"lat":"23.353605","lng":"116.692397"}],"type":"polyline"},{"color":"#0099FF","latLngs":[{"lat":"23.335977","lng":"116.676696"},{"lat":"23.353605","lng":"116.692397"}],"type":"polyline"},{"color":"#0099FF","latLngs":[{"lat":"23.364046","lng":"116.678835"},{"lat":"23.353605","lng":"116.692397"}],"type":"polyline"},{"color":"#0099FF","latLngs":[{"lat":"23.353605","lng":"116.692397"},{"lat":"23.353565","lng":"116.691958"}],"type":"polyline"},{"color":"#0099FF","latLngs":[{"lat":"23.335977","lng":"116.676696"},{"lat":"23.353565","lng":"116.691958"}],"type":"polyline"},{"color":"#0099FF","latLngs":[{"lat":"23.364046","lng":"116.678835"},{"lat":"23.353565","lng":"116.691958"}],"type":"polyline"},{"color":"#0099FF","latLngs":[{"lat":"23.353565","lng":"116.691958"},{"lat":"23.353653","lng":"116.691565"}],"type":"polyline"},{"color":"#0099FF","latLngs":[{"lat":"23.335977","lng":"116.676696"},{"lat":"23.353653","lng":"116.691565"}],"type":"polyline"},{"color":"#0099FF","latLngs":[{"lat":"23.364046","lng":"116.678835"},{"lat":"23.353653","lng":"116.691565"}],"type":"polyline"},{"color":"#0099FF","latLngs":[{"lat":"23.353653","lng":"116.691565"},{"lat":"23.353786","lng":"116.691033"}],"type":"polyline"},{"color":"#0099FF","latLngs":[{"lat":"23.335977","lng":"116.676696"},{"lat":"23.353786","lng":"116.691033"}],"type":"polyline"},{"color":"#0099FF","latLngs":[{"lat":"23.364046","lng":"116.678835"},{"lat":"23.353786","lng":"116.691033"}],"type":"polyline"},{"color":"#0099FF","latLngs":[{"lat":"23.353786","lng":"116.691033"},{"lat":"23.353669","lng":"116.690762"}],"type":"polyline"},{"color":"#0099FF","latLngs":[{"lat":"23.335977","lng":"116.676696"},{"lat":"23.353669","lng":"116.690762"}],"type":"polyline"},{"color":"#0099FF","latLngs":[{"lat":"23.364046","lng":"116.678835"},{"lat":"23.353669","lng":"116.690762"}],"type":"polyline"},{"color":"#0099FF","latLngs":[{"lat":"23.353669","lng":"116.690762"},{"lat":"23.353700","lng":"116.690356"}],"type":"polyline"},{"color":"#0099FF","latLngs":[{"lat":"23.335977","lng":"116.676696"},{"lat":"23.353700","lng":"116.690356"}],"type":"polyline"},{"color":"#0099FF","latLngs":[{"lat":"23.364046","lng":"116.678835"},{"lat":"23.353700","lng":"116.690356"}],"type":"polyline"},{"color":"#0099FF","latLngs":[{"lat":"23.353700","lng":"116.690356"},{"lat":"23.353749","lng":"116.689957"}],"type":"polyline"},{"color":"#0099FF","latLngs":[{"lat":"23.335977","lng":"116.676696"},{"lat":"23.353749","lng":"116.689957"}],"type":"polyline"},{"color":"#0099FF","latLngs":[{"lat":"23.364046","lng":"116.678835"},{"lat":"23.353749","lng":"116.689957"}],"type":"polyline"},{"color":"#0099FF","latLngs":[{"lat":"23.353749","lng":"116.689957"},{"lat":"23.353673","lng":"116.689686"}],"type":"polyline"},{"color":"#0099FF","latLngs":[{"lat":"23.335977","lng":"116.676696"},{"lat":"23.353673","lng":"116.689686"}],"type":"polyline"},{"color":"#0099FF","latLngs":[{"lat":"23.364046","lng":"116.678835"},{"lat":"23.353673","lng":"116.689686"}],"type":"polyline"},{"color":"#0099FF","latLngs":[{"lat":"23.353673","lng":"116.689686"},{"lat":"23.353652","lng":"116.689479"}],"type":"polyline"},{"color":"#0099FF","latLngs":[{"lat":"23.335977","lng":"116.676696"},{"lat":"23.353652","lng":"116.689479"}],"type":"polyline"},{"color":"#0099FF","latLngs":[{"lat":"23.364046","lng":"116.678835"},{"lat":"23.353652","lng":"116.689479"}],"type":"polyline"},{"color":"#0099FF","latLngs":[{"lat":"23.353652","lng":"116.689479"},{"lat":"23.353699","lng":"116.689134"}],"type":"polyline"},{"color":"#0099FF","latLngs":[{"lat":"23.335977","lng":"116.676696"},{"lat":"23.353699","lng":"116.689134"}],"type":"polyline"},{"color":"#0099FF","latLngs":[{"lat":"23.364046","lng":"116.678835"},{"lat":"23.353699","lng":"116.689134"}],"type":"polyline"},{"color":"#0099FF","latLngs":[{"lat":"23.353699","lng":"116.689134"},{"lat":"23.353711","lng":"116.688892"}],"type":"polyline"},{"color":"#0099FF","latLngs":[{"lat":"23.335977","lng":"116.676696"},{"lat":"23.353711","lng":"116.688892"}],"type":"polyline"},{"color":"#0099FF","latLngs":[{"lat":"23.364046","lng":"116.678835"},{"lat":"23.353711","lng":"116.688892"}],"type":"polyline"},{"color":"#0099FF","latLngs":[{"lat":"23.353711","lng":"116.688892"},{"lat":"23.353583","lng":"116.688583"}],"type":"polyline"},{"color":"#0099FF","latLngs":[{"lat":"23.335977","lng":"116.676696"},{"lat":"23.353583","lng":"116.688583"}],"type":"polyline"},{"color":"#0099FF","latLngs":[{"lat":"23.364046","lng":"116.678835"},{"lat":"23.353583","lng":"116.688583"}],"type":"polyline"},{"color":"#0099FF","latLngs":[{"lat":"23.353583","lng":"116.688583"},{"lat":"23.353763","lng":"116.688387"}],"type":"polyline"},{"color":"#0099FF","latLngs":[{"lat":"23.335977","lng":"116.676696"},{"lat":"23.353763","lng":"116.688387"}],"type":"polyline"},{"color":"#0099FF","latLngs":[{"lat":"23.364046","lng":"116.678835"},{"lat":"23.353763","lng":"116.688387"}],"type":"polyline"},{"color":"#0099FF","latLngs":[{"lat":"23.353763","lng":"116.688387"},{"lat":"23.353745","lng":"116.687642"}],"type":"polyline"},{"color":"#0099FF","latLngs":[{"lat":"23.335977","lng":"116.676696"},{"lat":"23.353745","lng":"116.687642"}],"type":"polyline"},{"color":"#0099FF","latLngs":[{"lat":"23.364046","lng":"116.678835"},{"lat":"23.353745","lng":"116.687642"}],"type":"polyline"},{"color":"#0099FF","latLngs":[{"lat":"23.353745","lng":"116.687642"},{"lat":"23.353876","lng":"116.686985"}],"type":"polyline"},{"color":"#0099FF","latLngs":[{"lat":"23.335977","lng":"116.676696"},{"lat":"23.353876","lng":"116.686985"}],"type":"polyline"},{"color":"#0099FF","latLngs":[{"lat":"23.364046","lng":"116.678835"},{"lat":"23.353876","lng":"116.686985"}],"type":"polyline"},{"color":"#0099FF","latLngs":[{"lat":"23.353876","lng":"116.686985"},{"lat":"23.353607","lng":"116.686353"}],"type":"polyline"},{"color":"#0099FF","latLngs":[{"lat":"23.335977","lng":"116.676696"},{"lat":"23.353607","lng":"116.686353"}],"type":"polyline"},{"color":"#0099FF","latLngs":[{"lat":"23.364046","lng":"116.678835"},{"lat":"23.353607","lng":"116.686353"}],"type":"polyline"},{"color":"#0099FF","latLngs":[{"lat":"23.353607","lng":"116.686353"},{"lat":"23.353897","lng":"116.685840"}],"type":"polyline"},{"color":"#0099FF","latLngs":[{"lat":"23.335977","lng":"116.676696"},{"lat":"23.353897","lng":"116.685840"}],"type":"polyline"},{"color":"#0099FF","latLngs":[{"lat":"23.364046","lng":"116.678835"},{"lat":"23.353897","lng":"116.685840"}],"type":"polyline"},{"color":"#0099FF","latLngs":[{"lat":"23.353897","lng":"116.685840"},{"lat":"23.354136","lng":"116.685626"}],"type":"polyline"},{"color":"#0099FF","latLngs":[{"lat":"23.335977","lng":"116.676696"},{"lat":"23.354136","lng":"116.685626"}],"type":"polyline"},{"color":"#0099FF","latLngs":[{"lat":"23.364046","lng":"116.678835"},{"lat":"23.354136","lng":"116.685626"}],"type":"polyline"},{"color":"#0099FF","latLngs":[{"lat":"23.354136","lng":"116.685626"},{"lat":"23.353779","lng":"116.684890"}],"type":"polyline"},{"color":"#0099FF","latLngs":[{"lat":"23.335977","lng":"116.676696"},{"lat":"23.353779","lng":"116.684890"}],"type":"polyline"},{"color":"#0099FF","latLngs":[{"lat":"23.364046","lng":"116.678835"},{"lat":"23.353779","lng":"116.684890"}],"type":"polyline"},{"color":"#0099FF","latLngs":[{"lat":"23.353779","lng":"116.684890"},{"lat":"23.353863","lng":"116.684427"}],"type":"polyline"},{"color":"#0099FF","latLngs":[{"lat":"23.335977","lng":"116.676696"},{"lat":"23.353863","lng":"116.684427"}],"type":"polyline"},{"color":"#0099FF","latLngs":[{"lat":"23.364046","lng":"116.678835"},{"lat":"23.353863","lng":"116.684427"}],"type":"polyline"},{"color":"#0099FF","latLngs":[{"lat":"23.353863","lng":"116.684427"},{"lat":"23.353722","lng":"116.684101"}],"type":"polyline"},{"color":"#0099FF","latLngs":[{"lat":"23.335977","lng":"116.676696"},{"lat":"23.353722","lng":"116.684101"}],"type":"polyline"},{"color":"#0099FF","latLngs":[{"lat":"23.364046","lng":"116.678835"},{"lat":"23.353722","lng":"116.684101"}],"type":"polyline"},{"color":"#0099FF","latLngs":[{"lat":"23.353722","lng":"116.684101"},{"lat":"23.353925","lng":"116.683618"}],"type":"polyline"},{"color":"#0099FF","latLngs":[{"lat":"23.335977","lng":"116.676696"},{"lat":"23.353925","lng":"116.683618"}],"type":"polyline"},{"color":"#0099FF","latLngs":[{"lat":"23.364046","lng":"116.678835"},{"lat":"23.353925","lng":"116.683618"}],"type":"polyline"},{"color":"#0099FF","latLngs":[{"lat":"23.353925","lng":"116.683618"},{"lat":"23.353597","lng":"116.683328"}],"type":"polyline"},{"color":"#0099FF","latLngs":[{"lat":"23.335977","lng":"116.676696"},{"lat":"23.353597","lng":"116.683328"}],"type":"polyline"},{"color":"#0099FF","latLngs":[{"lat":"23.364046","lng":"116.678835"},{"lat":"23.353597","lng":"116.683328"}],"type":"polyline"},{"color":"#0099FF","latLngs":[{"lat":"23.353597","lng":"116.683328"},{"lat":"23.353915","lng":"116.682613"}],"type":"polyline"},{"color":"#0099FF","latLngs":[{"lat":"23.335977","lng":"116.676696"},{"lat":"23.353915","lng":"116.682613"}],"type":"polyline"},{"color":"#0099FF","latLngs":[{"lat":"23.364046","lng":"116.678835"},{"lat":"23.353915","lng":"116.682613"}],"type":"polyline"},{"color":"#0099FF","latLngs":[{"lat":"23.353915","lng":"116.682613"},{"lat":"23.353562","lng":"116.682340"}],"type":"polyline"},{"color":"#0099FF","latLngs":[{"lat":"23.335977","lng":"116.676696"},{"lat":"23.353562","lng":"116.682340"}],"type":"polyline"},{"color":"#0099FF","latLngs":[{"lat":"23.364046","lng":"116.678835"},{"lat":"23.353562","lng":"116.682340"}],"type":"polyline"},{"color":"#0099FF","latLngs":[{"lat":"23.353562","lng":"116.682340"},{"lat":"23.353838","lng":"116.681584"}],"type":"polyline"},{"color":"#0099FF","latLngs":[{"lat":"23.335977","lng":"116.676696"},{"lat":"23.353838","lng":"116.681584"}],"type":"polyline"},{"color":"#0099FF","latLngs":[{"lat":"23.364046","lng":"116.678835"},{"lat":"23.353838","lng":"116.681584"}],"type":"polyline"},{"color":"#0099FF","latLngs":[{"lat":"23.353838","lng":"116.681584"},{"lat":"23.353579","lng":"116.681421"}],"type":"polyline"},{"color":"#0099FF","latLngs":[{"lat":"23.335977","lng":"116.676696"},{"lat":"23.353579","lng":"116.681421"}],"type":"polyline"},{"color":"#0099FF","latLngs":[{"lat":"23.364046","lng":"116.678835"},{"lat":"23.353579","lng":"116.681421"}],"type":"polyline"},{"color":"#0099FF","latLngs":[{"lat":"23.353579","lng":"116.681421"},{"lat":"23.354956","lng":"116.679686"}],"type":"polyline"},{"color":"#0099FF","latLngs":[{"lat":"23.335977","lng":"116.676696"},{"lat":"23.354956","lng":"116.679686"}],"type":"polyline"},{"color":"#0099FF","latLngs":[{"lat":"23.364046","lng":"116.678835"},{"lat":"23.354956","lng":"116.679686"}],"type":"polyline"}]

