{"maps":{"idOthers":{"label":"Others","state":1,"bkmrk":{}}},"portals":{"idOthers":{"label":"Others","state":1,"bkmrk":{"id1481005678800":{"guid":"26fa8a42b43e4a499c7bb868ad52f613.16","latlng":"23.357223,116.680193","label":"起舞"},"id1481005680517":{"guid":"de14590189bd42b48e8461ea3142a8c0.16","latlng":"23.356444,116.678492","label":"中国邮政"},"id1481005680920":{"guid":"1eed5e2d602d422eb65770168dd789a9.16","latlng":"23.357581,116.678794","label":"两只狮子诶"},"id1481005681230":{"guid":"3c30ed52c3c24ea08eab9cf80e083d43.11","latlng":"23.364661,116.671747","label":"汕头海霸王"},"id1481005681628":{"guid":"2145b9c52e3c437eb349bd8ed372f1e9.16","latlng":"23.356322,116.680255","label":"男女依偎"},"id1481005682006":{"guid":"77751afd45d145668db039b139b57a81.11","latlng":"23.360754,116.672073","label":"汕头金凤坛"},"id1481005685172":{"guid":"2dbb7ebe0edb429cb7757125f69fbc75.16","latlng":"23.362707,116.672592","label":"圆形大楼"},"id1481005685701":{"guid":"7bd8a53b17dd4130a4c9453af38296ef.11","latlng":"23.365264,116.675758","label":"八角亭"},"id1481005687395":{"guid":"faeed762e1d84fef884dbba605455f0a.16","latlng":"23.350587,116.664742","label":"西堤客运站"},"id1481005687600":{"guid":"b76f0e7689434bdd935c4b15438896dd.16","latlng":"23.354946,116.669512","label":"开埠文化陈列馆"},"id1481005687942":{"guid":"719c1b70dab644908650fa93109d0f6f.16","latlng":"23.353256,116.678575","label":"海滨长廊赋"},"id1481005688483":{"guid":"b7fd3fd3a8e948f5bcd652479d6a6000.16","latlng":"23.364278,116.676176","label":"联韩花园"},"id1481005690067":{"guid":"e62a7c5cca2b42b78906942ec1e77141.16","latlng":"23.357048,116.671115","label":"绿狮子"},"id1481005691348":{"guid":"866469370e514466bcd715175890c6be.11","latlng":"23.358316,116.673759","label":"汕头市西堂"},"id1481005692069":{"guid":"d706b6375b4b4e7ea2320f958bbdff1c.11","latlng":"23.364034,116.673774","label":"汕头印刷厂"},"id1481005692792":{"guid":"842ee9e1a0b74ffa855c3c2432dd2c64.16","latlng":"23.357733,116.672097","label":"存心善堂"},"id1481005694244":{"guid":"79a2831a276640beb0068681a8748d1d.16","latlng":"23.358504,116.674719","label":"外马三小 "},"id1481005695130":{"guid":"c7a1169db12347a48154cbe691c27dae.11","latlng":"23.355489,116.669645","label":"汕头老邮局"},"id1481005695407":{"guid":"813fbf552c0841729f0be37d3c4c7df8.16","latlng":"23.357077,116.668776","label":"The Pinnacle 百公司w"},"id1481005696328":{"guid":"c38887d4c6b148a2a319ba3570f24b3f.16","latlng":"23.358995,116.673178","label":"狮子开大口"},"id1481005696641":{"guid":"c2a830f5b9b942efa917860913d08193.16","latlng":"23.356213,116.670081","label":"Red Eyed Lion"},"id1481005696974":{"guid":"13297a8cad764a4092119cae80c05a17.11","latlng":"23.357873,116.669448","label":"小公园"},"id1481005698962":{"guid":"56bd510dc39d42a3a92d05cafcb842ce.16","latlng":"23.356522,116.67754","label":"市政府"},"id1481005699208":{"guid":"f5b65211bedc43a49680b5cf1c8d886f.16","latlng":"23.354969,116.678774","label":"人民广场"},"id1481005699535":{"guid":"6b6e029021d34b6b875f9f33641f38dd.16","latlng":"23.358391,116.677889","label":"好好学习，天天恋爱"},"id1481005699813":{"guid":"3fdeeb69e3074518b453717e24eb8010.11","latlng":"23.354835,116.677851","label":"石雕呀！！"},"id1481005701843":{"guid":"767ddbaffde2491f9d3a57877b03c3ad.16","latlng":"23.359758,116.673731","label":"大浦^ Hall of Dapu"},"id1481005702155":{"guid":"c6348112bcd145de872deea1b57b5523.16","latlng":"23.354956,116.679686","label":"城雕1"},"id1481005702766":{"guid":"ec79f565c6af4da0b5d70933a690c858.16","latlng":"23.36019,116.674719","label":"伯公宫"},"id1481005703308":{"guid":"35a03286102a45a2a9fbd50759a6e1ee.16","latlng":"23.361186,116.678683","label":"两只狮子诶"},"id1481005704361":{"guid":"a1ab507c109847f1938353fe37659ffe.16","latlng":"23.356778,116.680219","label":"杂耍熊猫"},"id1481005705035":{"guid":"edf1c7d69d804b9c9802ecdf04470652.16","latlng":"23.358077,116.677673","label":"大象"},"id1481005705275":{"guid":"4cb00b80903a4344b8a3b3e0ddf81358.11","latlng":"23.358595,116.675234","label":"汕头天主教堂"},"id1481005706675":{"guid":"e534cc1cee944d59b23f8a38d4857497.16","latlng":"23.357682,116.671842","label":"九龙壁画"},"id1481005708209":{"guid":"c78acae398ea41019c4cb67c8d896231.16","latlng":"23.357483,116.669743","label":"天后宫"},"id1481005813277":{"guid":"58bf53760815410bba9de02619812c61.16","latlng":"23.355323,116.66984","label":"侨批文物馆"},"id1481005847638":{"guid":"88d36404ec4e4548865bdc0801ec54e3.16","latlng":"23.362314,116.679515","label":"停车狮子"}}}}}